[
  {
    "totalPageCount": 1,
    "currentPage": 1,
    "items": [
      {
        "latitude": 34.395342,
        "name": "ARIZONA",
        "id": "30000000",
        "typeCode": 0,
        "longitude": -111.7632755
      },
      {
        "latitude": 35.2048883,
        "name": "ARKANSAS",
        "id": "40000000",
        "typeCode": 0,
        "longitude": -92.4479108
      },
      {
        "latitude": 36.7014631,
        "name": "CALIFORNIA",
        "id": "50000000",
        "typeCode": 0,
        "longitude": -118.7559974
      },
      {
        "latitude": 39.4225192,
        "name": "UTAH",
        "id": "450000000",
        "typeCode": 0,
        "longitude": -111.7143584
      },
      {
        "latitude": 38.8950092,
        "name": "WASHINGTON",
        "id": "480000000",
        "typeCode": 0,
        "longitude": -77.0365625
      },
      {
        "latitude": 38.7251776,
        "name": "COLORADO",
        "id": "60000000",
        "typeCode": 0,
        "longitude": -105.6077167
      },
      {
        "latitude": 38.6920451,
        "name": "DELAWARE",
        "id": "80000000",
        "typeCode": 0,
        "longitude": -75.4013315
      },
      {
        "latitude": 27.7567667,
        "name": "FLORIDA",
        "id": "100000000",
        "typeCode": 0,
        "longitude": -81.4639835
      },
      {
        "latitude": 32.3293809,
        "name": "GEORGIA",
        "id": "110000000",
        "typeCode": 0,
        "longitude": -83.1137366
      },
      {
        "latitude": 21.2160437,
        "name": "HAWAII",
        "id": "120000000",
        "typeCode": 0,
        "longitude": -157.975203
      },
      {
        "latitude": 43.6447642,
        "name": "IDAHO",
        "id": "130000000",
        "typeCode": 0,
        "longitude": -114.0154071
      },
      {
        "latitude": 40.0796606,
        "name": "ILLINOIS",
        "id": "140000000",
        "typeCode": 0,
        "longitude": -89.4337288
      },
      {
        "latitude": 40.3270127,
        "name": "INDIANA",
        "id": "150000000",
        "typeCode": 0,
        "longitude": -86.1746933
      },
      {
        "latitude": 40.2253569,
        "name": "OHIO",
        "id": "360000000",
        "typeCode": 0,
        "longitude": -82.6881395
      },
      {
        "latitude": 41.9216734,
        "name": "IOWA",
        "id": "160000000",
        "typeCode": 0,
        "longitude": -93.3122705
      },
      {
        "latitude": 38.27312,
        "name": "KANSAS",
        "id": "170000000",
        "typeCode": 0,
        "longitude": -98.5821872
      },
      {
        "latitude": 37.5726028,
        "name": "KENTUCKY",
        "id": "180000000",
        "typeCode": 0,
        "longitude": -85.1551411
      },
      {
        "latitude": 30.8703881,
        "name": "LOUISIANA",
        "id": "190000000",
        "typeCode": 0,
        "longitude": -92.007126
      },
      {
        "latitude": 45.709097,
        "name": "MAINE",
        "id": "200000000",
        "typeCode": 0,
        "longitude": -68.8590201
      },
      {
        "latitude": 39.5162234,
        "name": "MARYLAND",
        "id": "210000000",
        "typeCode": 0,
        "longitude": -76.9382069
      },
      {
        "latitude": 42.3788774,
        "name": "MASSACHUSETTS",
        "id": "220000000",
        "typeCode": 0,
        "longitude": -72.032366
      },
      {
        "latitude": 33.2588817,
        "name": "ALABAMA",
        "id": "10000000",
        "typeCode": 0,
        "longitude": -86.8295337
      },
      {
        "latitude": 43.6211955,
        "name": "MICHIGAN",
        "id": "230000000",
        "typeCode": 0,
        "longitude": -84.6824346
      },
      {
        "latitude": 45.9896587,
        "name": "MINNESOTA",
        "id": "240000000",
        "typeCode": 0,
        "longitude": -94.6113288
      },
      {
        "latitude": 32.9715645,
        "name": "MISSISSIPPI",
        "id": "250000000",
        "typeCode": 0,
        "longitude": -89.7348497
      },
      {
        "latitude": 38.7604815,
        "name": "MISSOURI",
        "id": "260000000",
        "typeCode": 0,
        "longitude": -92.5617875
      },
      {
        "latitude": 47.3752671,
        "name": "MONTANA",
        "id": "270000000",
        "typeCode": 0,
        "longitude": -109.6387579
      },
      {
        "latitude": 41.7370229,
        "name": "NEBRASKA",
        "id": "280000000",
        "typeCode": 0,
        "longitude": -99.5873816
      },
      {
        "latitude": 39.5158825,
        "name": "NEVADA",
        "id": "290000000",
        "typeCode": 0,
        "longitude": -116.8537227
      },
      {
        "latitude": 43.4849133,
        "name": "NEW HAMPSHIRE",
        "id": "300000000",
        "typeCode": 0,
        "longitude": -71.6553992
      },
      {
        "latitude": 40.0757384,
        "name": "NEW JERSEY",
        "id": "310000000",
        "typeCode": 0,
        "longitude": -74.4041622
      },
      {
        "latitude": 34.5708167,
        "name": "NEW MEXICO",
        "id": "320000000",
        "typeCode": 0,
        "longitude": -105.993007
      },
      {
        "latitude": 40.7308619,
        "name": "NEW YORK",
        "id": "330000000",
        "typeCode": 0,
        "longitude": -73.9871558
      },
      {
        "latitude": 35.6729639,
        "name": "NORTH CAROLINA",
        "id": "340000000",
        "typeCode": 0,
        "longitude": -79.0392919
      },
      {
        "latitude": 47.6201461,
        "name": "NORTH DAKOTA",
        "id": "350000000",
        "typeCode": 0,
        "longitude": -100.540737
      },
      {
        "latitude": 34.9550817,
        "name": "OKLAHOMA",
        "id": "370000000",
        "typeCode": 0,
        "longitude": -97.2684063
      },
      {
        "latitude": 43.9792797,
        "name": "OREGON",
        "id": "380000000",
        "typeCode": 0,
        "longitude": -120.737257
      },
      {
        "latitude": 40.9699889,
        "name": "PENNSYLVANIA",
        "id": "390000000",
        "typeCode": 0,
        "longitude": -77.7278831
      },
      {
        "latitude": 41.7962409,
        "name": "RHODE ISLAND",
        "id": "400000000",
        "typeCode": 0,
        "longitude": -71.5992372
      },
      {
        "latitude": 33.6874388,
        "name": "SOUTH CAROLINA",
        "id": "410000000",
        "typeCode": 0,
        "longitude": -80.4363743
      },
      {
        "latitude": 44.6471761,
        "name": "SOUTH DAKOTA",
        "id": "420000000",
        "typeCode": 0,
        "longitude": -100.348761
      },
      {
        "latitude": 35.7730076,
        "name": "TENNESSEE",
        "id": "430000000",
        "typeCode": 0,
        "longitude": -86.2820081
      },
      {
        "latitude": 31.8160381,
        "name": "TEXAS",
        "id": "440000000",
        "typeCode": 0,
        "longitude": -99.5120986
      },
      {
        "latitude": 44.5990718,
        "name": "VERMONT",
        "id": "460000000",
        "typeCode": 0,
        "longitude": -72.5002608
      },
      {
        "latitude": 37.1232245,
        "name": "VIRGINIA",
        "id": "470000000",
        "typeCode": 0,
        "longitude": -78.4927721
      },
      {
        "latitude": 38.4758406,
        "name": "WEST VIRGINIA",
        "id": "490000000",
        "typeCode": 0,
        "longitude": -80.8408415
      },
      {
        "latitude": 44.4308975,
        "name": "WISCONSIN",
        "id": "500000000",
        "typeCode": 0,
        "longitude": -89.6884637
      },
      {
        "latitude": 43.1700264,
        "name": "WYOMING",
        "id": "510000000",
        "typeCode": 0,
        "longitude": -107.5685348
      },
      {
        "latitude": 64.4459613,
        "name": "ALASKA",
        "id": "20000000",
        "typeCode": 0,
        "longitude": -149.680909
      },
      {
        "latitude": 41.6500201,
        "name": "CONNECTICUT",
        "id": "70000000",
        "typeCode": 0,
        "longitude": -72.7342163
      }
    ],
    "totalItemCount": 50
  }
]
